<?xml version="1.0" encoding="UTF-8"?>
<kml xmlns="http://earth.google.com/kml/2.1">
	<Document>
		<Style id="z1">
			<IconStyle>
				<Icon>
					<href>http://www.google.com/intl/en_us/mapfiles/ms/micons/yellow-dot.png</href>
				</Icon>
			</IconStyle>
		</Style>
		<Placemark>
            <name>Home</name>
            <styleUrl>#z1</styleUrl>
            <Point>
                <coordinates>-118.28642434194123,34.02926400675546</coordinates>
            </Point>
        </Placemark>
        <Placemark>
            <name>Webb_Tower</name>
            <styleUrl>#z1</styleUrl>
            <Point>
                <coordinates>-118.28791766693948,34.02452802149622</coordinates>
            </Point>
        </Placemark>
        <Placemark>
            <name>DWStructure</name>
            <styleUrl>#z1</styleUrl>
            <Point>
                <coordinates>-118.28988752043367,34.02065814284973</coordinates>
            </Point>
        </Placemark>
        <Placemark>
            <name>AHRCParkside</name>
            <styleUrl>#z1</styleUrl>
            <Point>
                <coordinates>-118.28936200646002,34.0191549413457</coordinates>
            </Point>
        </Placemark>
        <Placemark>
            <name>USCDDDCLASciences</name>
            <styleUrl>#z1</styleUrl>
            <Point>
                <coordinates>-118.2869430541605,34.01998998756802</coordinates>
            </Point>
        </Placemark>
        <Placemark>
            <name>USCLSchool</name>
            <styleUrl>#z1</styleUrl>
            <Point>
                <coordinates>-118.28417599713117,34.018872198396636</coordinates>
            </Point>
        </Placemark>
        <Placemark>
            <name>TRHall</name>
            <styleUrl>#z1</styleUrl>
            <Point>
                <coordinates>-118.28239722579629,34.01913010540583</coordinates>
            </Point>
        </Placemark>
        <Placemark>
            <name>FBuilding</name>
            <styleUrl>#z1</styleUrl>
            <Point>
                <coordinates>-118.28184151543769,34.01986975989288</coordinates>
            </Point>
        </Placemark>
        <Placemark>
            <name>HRHall</name>
            <styleUrl>#z1</styleUrl>
            <Point>
                <coordinates>-118.28171278769516,34.02170771465292</coordinates>
            </Point>
        </Placemark>
        <Placemark>
            <name>AKDundonBert</name>
            <styleUrl>#z1</styleUrl>
            <Point>
                <coordinates>-118.2834138467218,34.022490142655904</coordinates>
            </Point>
        </Placemark>
        <Placemark>
            <name>RamoHall</name>
            <styleUrl>#z1</styleUrl>
            <Point>
                <coordinates>-118.28526937694465,34.02323844023243</coordinates>
            </Point>
        </Placemark>
        <Placemark>
            <name>DonLibrary</name>
            <styleUrl>#z1</styleUrl>
            <Point>
                <coordinates>-118.28499034900311,34.02065444088764</coordinates>
            </Point>
        </Placemark>
        <Placemark>
            <name>PHBuilding</name>
            <styleUrl>#z1</styleUrl>
            <Point>
                <coordinates>-118.2868996671334,34.021608981481094</coordinates>
            </Point>
        </Placemark>
		<Style id ="yellowLineGreenPoly">
			<LineStyle>
				<color> 7f00ffff </color>
				<width> 4 </width>
			</LineStyle>
			<PolyStyle>
				<color> 7f00ff00 </color>
			</PolyStyle>
		</Style>
		<Placemark>
			<styleUrl>#yellowLineGreenPoly</styleUrl>
			<name>Convex Hull Polygon</name>
			<Polygon>
				<extrude>1</extrude>
				<tessellate>1</tessellate>
				<altitudeMode>relativeToGround</altitudeMode>
				<outerBoundaryIs>
					<LinearRing>
						<coordinates>
                            -118.28417599713117,34.018872198396636,10
							-118.28936200646002,34.0191549413457,10
							-118.28988752043367,34.02065814284973,10
							-118.28642434194123,34.02926400675546,10
							-118.28171278769516,34.02170771465292,10
							-118.28184151543769,34.01986975989288,10
							-118.28239722579629,34.01913010540583,10
							-118.28417599713117,34.018872198396636,10
                        </coordinates>
					</LinearRing>
				</outerBoundaryIs>
			</Polygon>
		</Placemark>
	</Document>
</kml>